,City,Lat,Lng,Max Temp,Min Temp,Humidity,Cloudiness,Wind Speed,Country,Date
0,hobart,-42.88,147.33,64.99,60.8,72,75,1.12,AU,1609711992
1,qaanaaq,77.48,-69.36,2.01,2.01,83,82,3.53,GL,1609712078
2,lavrentiya,65.58,-171.0,-6.02,-6.02,90,85,15.14,RU,1609712079
3,tiksi,71.69,128.87,-23.73,-23.73,84,43,3.38,RU,1609712080
4,wattegama,6.8,81.48,75.2,75.2,100,75,5.82,LK,1609712082
5,san cristobal,7.77,-72.22,75.2,75.2,94,75,4.7,VE,1609711931
6,nobeoka,32.58,131.67,26.01,26.01,79,71,1.99,JP,1609712084
7,ponta do sol,32.67,-17.1,62.6,52.0,67,75,11.41,PT,1609712086
8,oktyabrskoye,43.06,44.74,26.6,26.6,100,0,6.71,RU,1609712087
9,albany,42.6,-73.97,32.0,30.99,85,99,3.13,US,1609711918
10,longyearbyen,78.22,15.64,33.8,33.8,80,40,21.92,SJ,1609711878
11,norman wells,65.28,-126.83,-14.8,-14.8,75,75,5.82,CA,1609712090
12,lompoc,34.64,-120.46,62.6,59.0,67,1,4.7,US,1609712092
13,high level,58.52,-117.14,-4.0,-4.0,83,20,3.36,CA,1609712093
14,cidreira,-30.18,-50.21,74.41,74.41,72,0,21.36,BR,1609712094
15,vaini,-21.2,-175.2,80.6,80.6,88,75,10.29,TO,1609712095
16,bluff,-46.6,168.33,59.0,59.0,74,78,8.01,NZ,1609712097
17,taltal,-25.4,-70.48,68.61,68.61,66,23,6.62,CL,1609712098
18,saint-philippe,-21.36,55.77,75.2,63.0,73,0,8.05,RE,1609712099
19,cape town,-33.93,18.42,73.4,68.0,69,0,14.99,ZA,1609711921
20,abu samrah,35.3,37.18,52.2,52.2,63,77,4.72,SY,1609712102
21,port alfred,-33.59,26.89,73.0,73.0,93,18,3.83,ZA,1609712104
22,tasiilaq,65.61,-37.64,28.4,28.4,79,100,25.28,GL,1609712106
23,molina,-35.12,-71.28,89.6,89.6,22,0,13.87,CL,1609712108
24,west plains,36.73,-91.85,46.99,46.0,70,1,5.82,US,1609712109
25,edson,53.58,-116.44,39.2,37.4,35,1,16.11,CA,1609712110
26,mataura,-46.19,168.86,59.0,59.0,74,100,8.01,NZ,1609712112
27,qaqortoq,60.72,-46.03,26.6,26.6,68,100,4.7,GL,1609712113
28,margate,51.38,1.39,42.01,39.99,68,100,4.0,GB,1609712101
29,college,64.86,-147.8,1.4,1.4,64,90,10.29,US,1609712116
30,kasongo-lunda,-6.47,16.82,70.84,70.84,92,67,0.76,CD,1609712117
31,ozinki,51.18,49.68,25.29,25.29,98,83,5.01,RU,1609712118
32,bandundu,-3.32,17.37,73.08,73.08,93,100,1.61,CD,1609712120
33,meulaboh,4.14,96.13,75.49,75.49,86,99,4.56,ID,1609712121
34,castro,-24.79,-50.01,63.68,63.68,88,1,9.8,BR,1609712122
35,thompson,55.74,-97.86,3.2,3.2,84,90,8.05,CA,1609712123
36,punta arenas,-53.15,-70.92,53.6,53.01,54,40,29.97,CL,1609711835
37,imbituba,-28.24,-48.67,77.0,77.0,65,40,12.75,BR,1609712021
38,mpika,-11.83,31.45,60.35,60.35,96,65,2.08,ZM,1609712127
39,pangnirtung,66.15,-65.71,-5.8,-5.8,63,90,3.36,CA,1609712128
40,coihaique,-45.58,-72.07,60.8,60.8,41,75,9.17,CL,1609712130
41,fortuna,40.6,-124.16,55.99,53.6,93,40,13.87,US,1609712131
42,kapit,2.02,112.93,74.14,74.14,95,100,1.9,MY,1609712132
43,naze,28.37,129.48,60.8,60.8,87,75,13.87,JP,1609712133
44,severo-kurilsk,50.68,156.12,23.04,23.04,93,100,26.13,RU,1609712134
45,chuy,-33.7,-53.46,71.44,71.44,78,28,12.53,UY,1609712136
46,xiongzhou,25.12,114.3,40.89,40.89,67,24,2.26,CN,1609712137
47,leningradskiy,69.38,178.42,-7.06,-7.06,90,98,4.65,RU,1609712138
48,vitim,59.45,112.56,-12.26,-12.26,86,100,6.02,RU,1609712140
49,barrow,71.29,-156.79,-2.2,-2.2,70,90,10.29,US,1609712141
50,bitung,1.45,125.18,75.2,75.2,94,40,1.12,ID,1609712142
51,mar del plata,-38.0,-57.56,80.6,80.6,61,0,14.99,AR,1609711883
52,yarensk,62.17,49.09,9.75,9.75,95,100,6.33,RU,1609712145
53,mincivan,39.03,46.72,40.1,40.1,67,24,2.04,AZ,1609712147
54,morro bay,35.37,-120.85,63.0,57.0,71,90,4.0,US,1609712013
55,victoria,22.29,114.16,63.0,54.0,72,95,9.6,HK,1609712060
56,avarua,-21.21,-159.78,84.2,84.2,74,13,17.22,CK,1609712151
57,ushuaia,-54.8,-68.3,46.4,46.4,100,75,18.34,AR,1609712152
58,ribeira grande,38.52,-28.7,62.6,62.6,93,75,35.57,PT,1609712153
59,jamestown,42.1,-79.24,35.01,33.8,96,90,6.93,US,1609712154
60,busselton,-33.65,115.33,59.0,57.0,78,0,5.01,AU,1609712156
61,bredasdorp,-34.53,20.04,69.8,69.8,83,93,9.17,ZA,1609712157
62,turangi,-39.0,175.93,61.77,61.77,85,87,2.19,NZ,1609712158
63,la romana,18.43,-68.97,80.6,80.6,78,40,13.87,DO,1609712160
64,evensk,61.95,159.23,2.3,2.3,87,100,10.85,RU,1609712161
65,znamenskoye,57.13,73.83,-27.76,-27.76,84,0,5.32,RU,1609712162
66,crixas,-14.55,-49.97,75.67,75.67,85,69,3.36,BR,1609712163
67,abapo,-18.83,-63.47,86.74,86.74,43,50,13.53,BO,1609712164
68,chokurdakh,70.63,147.92,-24.41,-24.41,87,95,6.53,RU,1609712166
69,price,39.6,-110.81,26.6,26.6,73,90,3.36,US,1609712167
70,svetlogorsk,52.63,29.73,36.37,36.37,87,100,10.27,BY,1609712168
71,atuona,-9.8,-139.03,78.69,78.69,67,16,15.39,PF,1609712170
72,iqaluit,63.75,-68.51,0.0,-0.4,70,90,6.93,CA,1609712171
73,karratha,-20.74,116.85,91.02,91.02,33,87,12.95,AU,1609712172
74,hasaki,35.73,140.83,30.2,26.6,86,75,2.24,JP,1609712081
75,churachandpur,24.33,93.67,50.65,50.65,96,96,1.86,IN,1609712174
76,rikitea,-23.12,-134.97,78.15,78.15,80,21,16.49,PF,1609712176
77,arraial do cabo,-22.97,-42.03,77.0,77.0,83,75,6.93,BR,1609712177
78,saskylakh,71.92,114.08,-21.01,-21.01,79,78,5.84,RU,1609712178
79,kurmanayevka,52.51,52.07,14.16,14.16,96,93,6.33,RU,1609712179
80,anadyr,64.75,177.48,1.4,1.4,64,0,15.66,RU,1609712181
81,coquimbo,-29.95,-71.34,64.4,64.4,68,75,12.75,CL,1609711996
82,khatanga,71.97,102.5,-6.48,-6.48,91,92,9.93,RU,1609712183
83,half moon bay,37.46,-122.43,54.0,50.0,100,90,6.93,US,1609712186
84,george,-33.96,22.46,69.8,69.8,94,56,3.36,ZA,1609712187
85,ozark,37.02,-93.21,46.99,43.0,87,10,5.66,US,1609712188
86,pisco,-13.7,-76.22,73.4,71.01,78,0,24.16,PE,1609712189
87,kenora,49.82,-94.43,30.2,30.0,86,75,11.41,CA,1609712191
88,biaora,23.87,76.92,64.45,64.45,54,2,2.3,IN,1609712192
89,sola,-13.88,167.55,84.2,84.2,83,90,8.84,VU,1609712193
90,egvekinot,66.32,-179.17,-9.56,-9.56,86,5,20.24,RU,1609712195
91,boguchar,49.94,40.55,22.98,22.98,98,84,6.17,RU,1609712196
92,kapaa,22.08,-159.32,78.8,77.0,69,75,14.99,US,1609712197
93,tuktoyaktuk,69.45,-133.04,-11.2,-11.2,76,20,11.41,CA,1609712198
94,loreto,22.27,-101.97,70.5,70.5,17,84,14.5,MX,1609712200
95,okahandja,-21.98,16.92,68.0,66.2,82,100,3.36,NA,1609712201
96,caraquet,47.79,-64.94,23.0,23.0,79,91,2.24,CA,1609712202
97,kolokani,13.57,-8.03,78.73,78.73,22,0,6.96,ML,1609712204
98,nanakuli,21.39,-158.15,80.6,73.4,61,20,5.82,US,1609712119
99,rio gallegos,-51.62,-69.22,59.0,59.0,24,40,29.97,AR,1609712206
100,lima,-12.04,-77.03,73.4,73.0,73,75,10.29,PE,1609711951
101,oussouye,12.48,-16.55,75.2,73.4,88,0,4.7,SN,1609712208
102,sao filipe,14.9,-24.5,74.71,74.71,78,69,2.35,CV,1609712210
103,hilo,19.73,-155.09,80.6,72.0,57,1,4.7,US,1609712030
104,sechura,-5.56,-80.82,77.2,77.2,59,18,14.9,PE,1609712212
105,mahanoro,-19.9,48.8,72.18,72.18,81,13,4.0,MG,1609712213
106,pong,19.15,100.28,60.4,60.4,82,3,1.43,TH,1609712214
107,hithadhoo,-0.6,73.08,82.51,82.51,76,100,9.01,MV,1609712216
108,butaritari,3.07,172.79,81.93,81.93,81,1,20.87,KI,1609712217
109,mana,5.66,-53.78,76.53,76.53,86,100,8.03,GF,1609712219
110,ewa beach,21.32,-158.01,80.6,73.4,61,20,5.82,US,1609712221
111,bilibino,68.05,166.44,-17.28,-17.28,85,75,2.86,RU,1609712222
112,east london,-33.02,27.91,75.54,75.54,69,36,3.24,ZA,1609712223
113,koslan,63.46,48.9,6.49,6.49,94,100,8.08,RU,1609712224
114,rawson,-43.3,-65.1,67.1,67.1,41,20,17.02,AR,1609712225
115,cherskiy,68.75,161.3,-26.0,-26.0,85,100,3.58,RU,1609712227
116,hermanus,-34.42,19.23,71.01,71.01,83,40,7.0,ZA,1609712228
117,camapua,-19.53,-54.04,81.7,81.7,58,12,4.34,BR,1609712229
118,don sak,9.32,99.69,77.0,77.0,99,63,8.41,TH,1609712230
119,lukovetskiy,64.3,41.92,19.4,19.4,92,90,4.47,RU,1609712231
120,lewistown,40.6,-77.57,34.0,32.0,100,90,1.32,US,1609712233
121,georgetown,5.41,100.34,77.0,75.0,94,40,3.36,MY,1609712234
122,kupang,-10.17,123.58,75.2,75.2,94,20,2.24,ID,1609712235
123,pevek,69.7,170.31,-16.64,-16.64,89,22,5.14,RU,1609712237
124,kodiak,57.79,-152.41,26.6,26.6,73,20,4.7,US,1609712238
125,huntington,38.42,-82.45,42.01,39.2,93,90,6.93,US,1609712029
126,port elizabeth,-33.92,25.57,71.6,71.6,94,75,6.93,ZA,1609712240
127,dhidhdhoo,6.88,73.1,81.23,81.23,70,5,7.07,MV,1609712241
128,gawler,-34.6,138.73,66.99,66.0,62,94,11.01,AU,1609712114
129,totness,5.88,-56.32,76.46,76.46,86,100,8.46,SR,1609712244
130,aleksandrov gay,50.15,48.57,20.16,20.16,98,26,0.69,RU,1609712246
131,lichinga,-13.31,35.24,62.6,62.01,100,75,8.05,MZ,1609712247
132,ulladulla,-35.35,150.47,71.01,68.0,100,100,3.36,AU,1609712248
133,mount isa,-20.73,139.5,78.8,78.8,65,84,4.7,AU,1609712249
134,carnarvon,-24.87,113.63,75.2,75.2,94,5,12.75,AU,1609712250
135,nanortalik,60.14,-45.24,23.81,23.81,93,94,3.58,GL,1609712252
136,bengkulu,-3.8,102.27,74.59,74.59,78,94,4.59,ID,1609712253
137,lagoa,39.05,-27.98,62.58,62.58,87,100,37.2,PT,1609712254
138,kaz,52.91,87.31,-19.46,-19.46,86,37,1.43,RU,1609712255
139,la ronge,55.1,-105.28,23.0,19.4,92,100,4.7,CA,1609712256
140,mahebourg,-20.41,57.7,77.0,77.0,73,75,12.75,MU,1609712258
141,ostrovnoy,68.05,39.51,10.81,10.81,94,91,7.09,RU,1609712259
142,corning,42.14,-77.05,33.8,30.99,100,90,1.63,US,1609712132
143,airai,-8.93,125.41,62.62,62.62,100,99,2.06,TL,1609712261
144,kaitangata,-46.28,169.85,59.0,59.0,74,100,11.01,NZ,1609712262
145,upernavik,72.79,-56.15,15.49,15.49,95,100,5.39,GL,1609712264
146,tautira,-17.73,-149.15,86.0,86.0,55,40,20.8,PF,1609712265
147,sorland,67.67,12.69,42.75,42.75,74,100,19.77,NO,1609712266
148,beni mazar,28.5,30.8,56.43,56.43,67,0,6.76,EG,1609712267
149,bhanvad,21.93,69.77,58.01,58.01,50,0,8.7,IN,1609712269
150,yulara,-25.24,130.99,69.8,69.8,56,0,11.41,AU,1609712270
151,hamilton,39.18,-84.53,37.99,36.0,69,90,9.17,US,1609712271
152,watsa,3.04,29.54,67.26,67.26,72,19,2.01,CD,1609712272
153,touros,-5.2,-35.46,80.6,80.6,78,20,12.75,BR,1609712273
154,samarai,-10.62,150.67,84.2,84.2,77,100,16.22,PG,1609712275
155,makakilo city,21.35,-158.09,80.6,73.4,61,20,5.82,US,1609712176
156,klaksvik,62.23,-6.59,42.8,42.8,100,91,12.75,FO,1609712277
157,alytus,54.4,24.05,28.4,28.4,92,90,4.7,LT,1609712278
158,warwick,41.7,-71.42,36.0,34.0,80,90,8.05,US,1609712180
159,puerto ayora,-0.74,-90.35,82.4,75.99,61,40,14.99,EC,1609712281
160,chiang rai,19.92,99.92,57.2,57.0,100,1,2.24,TH,1609712282
161,srednekolymsk,67.45,153.68,-17.82,-17.82,88,100,6.35,RU,1609712283
162,jatai,-17.88,-51.71,78.82,78.82,63,35,4.41,BR,1609712285
163,pucallpa,-8.38,-74.55,87.8,87.8,66,75,8.05,PE,1609712286
164,westport,41.14,-73.36,35.6,32.0,80,90,12.75,US,1609712176
165,tawang,27.58,91.87,37.74,37.74,69,26,3.42,IN,1609712289
166,ankang,32.68,109.02,38.32,38.32,75,76,2.75,CN,1609712290
167,miri,4.41,114.01,77.0,77.0,94,20,3.36,MY,1609712230
168,santa isabel do rio negro,-0.41,-65.02,78.66,78.66,90,82,0.67,BR,1609712292
169,yuli,9.7,10.27,79.0,79.0,20,0,4.61,NG,1609712293
170,ryotsu,38.08,138.43,77.0,77.0,31,75,13.87,JP,1609712295
171,tuatapere,-46.13,167.68,59.0,59.0,74,88,8.01,NZ,1609712296
172,riyadh,24.69,46.72,60.8,60.8,55,0,4.7,SA,1609712239
173,labuhan,-6.88,112.21,78.17,78.17,83,100,7.29,ID,1609712298
174,ambilobe,-13.2,49.05,74.77,74.77,80,97,3.33,MG,1609712300
175,saposoa,-6.93,-76.77,91.4,91.4,55,40,5.82,PE,1609712301
176,mahajanga,-15.72,46.32,80.6,80.6,74,40,4.7,MG,1609712302
177,conceicao da barra,-18.59,-39.73,78.26,78.26,77,62,10.58,BR,1609712261
178,nyagan,62.14,65.39,-17.28,-17.28,88,98,5.7,RU,1609712305
179,beloha,-25.17,45.05,75.67,75.67,63,0,10.76,MG,1609712306
180,mujiayingzi,42.12,118.78,-4.4,-4.4,83,37,5.91,CN,1609712307
181,codrington,-38.27,141.97,58.69,58.69,81,97,17.6,AU,1609712308
182,lenoir city,35.8,-84.26,44.01,42.01,68,79,1.01,US,1609712310
183,kerman,30.28,57.08,21.2,21.2,44,0,4.7,IR,1609712311
184,esperance,-33.87,121.9,55.4,55.4,87,75,5.82,AU,1609712312
185,lazaro cardenas,17.96,-102.2,82.85,82.85,52,0,9.82,MX,1609712313
186,udachnyy,66.42,112.4,-43.6,-43.6,64,0,4.47,RU,1609712315
187,sakakah,29.97,40.21,55.4,55.4,76,0,5.82,SA,1609712316
188,bethel,41.37,-73.41,33.01,30.99,94,90,8.05,US,1609712317
189,ilulissat,69.22,-51.1,19.4,19.4,85,100,6.93,GL,1609712318
190,alofi,-19.06,-169.92,84.2,84.2,74,75,4.7,NU,1609712320
191,lebu,-37.62,-73.65,59.0,59.0,71,0,21.41,CL,1609712321
192,tigil,57.8,158.67,2.5,2.5,94,92,2.48,RU,1609712322
193,senanga,-16.12,23.27,67.6,67.6,94,99,4.54,ZM,1609712323
194,rundu,-17.93,19.77,69.17,69.17,81,100,4.21,NA,1609712324
195,xilagani,40.98,25.42,54.41,54.41,90,33,8.12,GR,1609712326
196,diffa,13.32,12.61,77.16,77.16,17,0,6.67,NE,1609712327
197,sinnamary,5.38,-52.95,78.39,78.39,83,87,9.37,GF,1609712328
198,pazaric,43.79,18.16,32.0,32.0,84,90,1.12,BA,1609712329
199,grindavik,63.84,-22.43,41.0,41.0,93,90,33.33,IS,1609712331
200,viedma,-40.81,-63.0,66.58,66.58,53,100,7.43,AR,1609712332
201,paamiut,61.99,-49.67,24.46,24.46,94,100,13.38,GL,1609712333
202,murree,33.91,73.39,53.01,48.2,81,90,4.7,PK,1609712334
203,katsuura,35.13,140.3,39.0,37.4,55,75,6.93,JP,1609712336
204,kidal,18.44,1.41,73.96,73.96,21,0,7.76,ML,1609712337
205,tiznit,29.58,-9.5,54.59,54.59,47,100,4.34,MA,1609712338
206,komsomolskiy,40.43,71.72,23.0,23.0,85,90,2.24,UZ,1609712339
207,zavetnoye,47.12,43.89,31.8,31.8,98,63,12.82,RU,1609712341
208,dunedin,-45.87,170.5,58.62,58.62,72,76,11.25,NZ,1609712342
209,broome,42.25,-75.83,32.0,30.2,92,90,4.7,US,1609712343
210,carutapera,-1.2,-46.02,76.84,76.84,89,58,6.33,BR,1609712344
211,faanui,-16.48,-151.75,79.7,79.7,76,15,15.26,PF,1609712346
212,wilmington,34.23,-77.94,69.8,63.0,46,1,11.41,US,1609712273
213,ancud,-41.87,-73.82,61.0,51.01,55,0,11.41,CL,1609712348
214,vao,-22.67,167.48,79.57,79.57,82,61,8.66,NC,1609712349
215,clyde river,70.47,-68.59,-20.2,-20.2,82,1,2.24,CA,1609712350
216,novyy urengoy,66.08,76.63,-20.43,-20.43,87,0,9.91,RU,1609712177
217,los llanos de aridane,28.66,-17.92,64.4,55.99,88,75,11.41,ES,1609712353
218,kahului,20.89,-156.47,80.6,73.99,57,40,14.99,US,1609712354
219,new norfolk,-42.78,147.06,64.99,57.99,64,98,1.95,AU,1609712355
220,provideniya,64.38,-173.3,-4.22,-4.22,86,0,22.24,RU,1609712357
221,chulym,55.1,80.96,-22.92,-22.92,87,1,5.23,RU,1609712358
222,ust-tsilma,65.44,52.15,2.14,2.14,93,88,5.84,RU,1609712359
223,cabo san lucas,22.89,-109.91,75.0,71.6,49,20,13.87,MX,1609712201
224,havelock,34.88,-76.9,62.6,57.99,77,1,11.41,US,1609712361
225,camocim,-2.9,-40.84,80.04,80.04,79,30,14.34,BR,1609712305
226,kampong chhnang,12.17,104.55,71.53,71.53,72,100,7.14,KH,1609712364
227,karpogory,64.0,44.45,9.45,9.45,95,82,6.6,RU,1609712365
228,longview,32.5,-94.74,64.4,64.4,31,1,16.11,US,1609712249
229,borzya,50.38,116.52,-18.08,-18.08,86,78,5.26,RU,1609712368
230,cabedelo,-6.98,-34.83,80.6,80.6,83,20,12.75,BR,1609712369
231,teodoro sampaio,-22.53,-52.17,78.98,78.98,69,30,4.23,BR,1609712370
232,ndele,8.41,20.65,75.07,75.07,22,65,5.35,CF,1609712371
233,nelson bay,-32.72,152.15,73.99,69.8,94,100,6.93,AU,1609712372
234,whitehorse,60.72,-135.05,5.0,0.0,84,75,11.41,CA,1609712318
235,xaltianguis,17.07,-99.83,86.0,86.0,62,20,9.17,MX,1609712375
236,vila franca do campo,37.72,-25.43,60.8,60.8,93,75,25.28,PT,1609712376
237,talnakh,69.49,88.4,3.2,3.2,84,90,6.71,RU,1609712377
238,bathsheba,13.22,-59.52,80.6,80.6,69,40,18.34,BB,1609712379
239,bara,10.37,10.73,76.46,76.46,20,0,6.78,NG,1609712381
240,alta floresta,-9.88,-56.09,74.7,74.7,94,93,4.99,BR,1609712383
241,plouzane,48.38,-4.62,37.4,35.6,93,100,3.36,FR,1609712384
242,arlit,18.74,7.39,75.0,75.0,19,0,4.16,NE,1609712385
243,hambantota,6.12,81.12,75.2,75.2,100,75,5.82,LK,1609712386
244,panormos,35.42,24.69,61.0,59.0,82,20,4.7,GR,1609712387
245,trofors,65.53,13.41,21.2,21.0,85,40,5.82,NO,1609712389
246,qasigiannguit,68.82,-51.19,19.4,19.4,85,100,6.93,GL,1609712390
247,buin,-33.73,-70.75,87.01,86.0,35,0,9.17,CL,1609712391
248,baker city,44.77,-117.83,46.4,37.99,85,1,6.93,US,1609712392
249,namibe,-15.2,12.15,71.91,71.91,74,99,2.73,AO,1609712394
250,nikolskoye,59.7,30.79,26.6,26.01,92,75,2.24,RU,1609712395
251,araguari,-18.65,-48.19,72.34,72.34,75,4,1.63,BR,1609712396
252,soyo,-6.13,12.37,78.53,78.53,87,46,6.62,AO,1609712397
253,pathein,16.78,94.73,66.16,66.16,79,98,3.18,MM,1609712355
254,lata,40.16,-8.33,46.0,41.0,93,75,3.36,PT,1609712400
255,portland,45.52,-122.68,53.01,48.99,71,75,8.05,US,1609711999
256,mindelo,16.89,-24.98,73.4,73.4,56,20,5.82,CV,1609712403
257,sao joao da barra,-21.64,-41.05,78.8,78.8,74,75,6.93,BR,1609712405
258,padang,-0.95,100.35,73.4,73.4,94,20,3.36,ID,1609712406
259,geraldton,-28.77,114.6,82.4,82.4,28,100,20.8,AU,1609712408
260,dustlik,40.52,68.04,27.03,27.03,88,0,0.89,UZ,1609712410
261,honningsvag,70.98,25.97,30.2,30.2,92,40,11.41,NO,1609712411
262,celestun,20.87,-90.4,75.74,75.74,81,12,15.75,MX,1609712413
263,tukrah,32.53,20.58,64.98,64.98,49,100,34.31,LY,1609712414
264,berdigestyakh,62.1,126.7,-34.06,-34.06,83,92,1.74,RU,1609712415
265,petropavlovskoye,52.07,84.11,-22.68,-22.68,83,0,3.42,RU,1609712416
266,praia da vitoria,38.73,-27.07,60.8,59.0,87,75,34.25,PT,1609712418
267,saint george,37.1,-113.58,53.01,48.2,31,1,3.36,US,1609712419
268,humaita,-7.51,-63.02,75.54,75.54,94,84,4.18,BR,1609712420
269,oranjemund,-28.55,16.43,68.56,68.56,77,94,8.08,NA,1609712421
270,coxim,-18.51,-54.76,77.85,77.85,81,53,2.91,BR,1609712337
271,giyon,8.53,37.98,60.51,60.51,51,64,11.36,ET,1609712424
272,alugan,12.22,125.48,79.84,79.84,85,100,14.07,PH,1609712425
273,yellowknife,62.46,-114.35,-5.8,-5.8,83,75,6.93,CA,1609712426
274,mount gambier,-37.83,140.77,59.0,59.0,77,90,14.99,AU,1609712283
275,jiazi,22.88,116.07,58.44,58.44,78,97,15.19,CN,1609712289
276,cap-aux-meules,47.38,-61.86,26.6,26.6,79,59,5.82,CA,1609712221
277,khorixas,-20.37,14.97,66.27,66.27,62,83,5.48,NA,1609712432
278,montepuez,-13.13,39.0,70.18,70.18,95,100,2.04,MZ,1609712433
279,pasighat,28.07,95.33,56.34,56.34,38,27,3.44,IN,1609712434
280,sitka,57.05,-135.33,42.8,42.8,81,90,5.82,US,1609712435
281,bilma,18.69,12.92,73.02,73.02,19,0,7.38,NE,1609712436
282,nishihara,26.18,127.76,66.2,62.01,82,75,6.93,JP,1609712438
283,dingle,11.0,122.67,74.8,74.8,92,98,8.1,PH,1609712439
284,wajir,1.75,40.06,81.61,81.61,40,96,1.34,KE,1609712440
285,shuangcheng,45.35,126.28,-13.0,-13.0,83,0,4.47,CN,1609712441
286,newberry,34.27,-81.62,53.6,53.01,54,1,11.41,US,1609712443
287,upata,8.01,-62.4,80.01,80.01,73,29,1.99,VE,1609712444
288,corinto,37.94,22.96,61.0,61.0,57,100,4.0,GR,1609712445
289,vanavara,60.34,102.28,-22.88,-22.88,84,100,9.69,RU,1609712447
290,puri,19.8,85.85,60.8,60.8,93,0,5.82,IN,1609712448
291,lebane,42.92,21.74,48.2,44.6,70,0,4.7,RS,1609712449
292,tuy hoa,13.08,109.3,71.94,71.94,91,100,9.19,VN,1609712450
293,guerrero negro,27.98,-114.06,66.49,66.49,47,39,16.37,MX,1609712451
294,aykhal,66.0,111.5,-43.6,-43.6,64,0,4.47,RU,1609712453
295,teya,60.38,92.63,-18.72,-18.72,84,100,5.44,RU,1609712454
296,maningrida,-12.07,134.27,82.2,82.2,86,95,8.52,AU,1609712455
297,nhulunbuy,-12.23,136.77,82.4,82.4,88,94,8.05,AU,1609712456
298,bobon,12.52,124.56,77.18,77.18,89,100,9.4,PH,1609712457
299,saldanha,-33.01,17.94,73.4,73.4,60,0,4.7,ZA,1609712459
300,vardo,70.37,31.11,30.2,30.2,80,75,10.29,NO,1609712460
301,ambon,-3.7,128.18,78.8,78.8,88,40,2.24,ID,1609712461
302,hami,42.8,93.45,10.38,10.38,78,27,3.04,CN,1609712463
303,port-gentil,-0.72,8.78,80.6,80.6,94,40,5.82,GA,1609712464
304,caravelas,-17.71,-39.25,77.32,77.32,82,50,7.92,BR,1609712465
305,huarmey,-10.07,-78.15,73.06,73.06,74,36,9.06,PE,1609712466
306,northam,51.03,-4.22,39.99,37.0,83,99,13.0,GB,1609712467
307,dikson,73.51,80.55,-1.98,-1.98,86,20,13.02,RU,1609712469
308,brae,60.4,-1.35,41.0,41.0,60,5,3.36,GB,1609712470
309,moron,-34.65,-58.62,86.0,81.0,35,66,5.99,AR,1609712471
310,berlevag,70.86,29.09,30.2,28.4,86,40,13.87,NO,1609712472
311,chabahar,25.29,60.64,63.97,63.97,31,0,10.31,IR,1609712474
312,alyangula,-13.85,136.42,78.8,78.8,100,75,8.16,AU,1609712475
313,maceio,-9.67,-35.74,77.0,77.0,83,0,4.7,BR,1609712476
314,ulaanbaatar,47.91,106.88,-36.4,-36.4,58,26,2.3,MN,1609712477
315,godda,24.83,87.22,59.11,59.11,51,0,1.28,IN,1609712478
316,areosa,41.72,-8.86,46.99,44.01,93,75,4.7,PT,1609712480
317,north battleford,52.78,-108.28,35.6,35.6,69,1,13.87,CA,1609712298
318,sinop,41.77,34.87,44.92,44.92,59,73,8.77,TR,1609712482
319,nawabganj,24.59,88.27,61.34,61.34,59,13,2.44,BD,1609712440
320,najran,17.49,44.13,59.0,59.0,58,0,1.03,SA,1609712342
321,north bend,43.41,-124.22,54.0,51.01,81,90,3.36,US,1609712486
322,palafrugell,41.92,3.16,28.4,28.4,86,0,4.83,ES,1609712220
323,weilburg,50.48,8.25,32.0,28.99,92,99,6.85,DE,1609712488
324,san patricio,28.02,-97.52,69.8,66.99,43,20,6.93,US,1609712489
325,kars,40.6,43.09,6.8,6.8,92,0,0.58,TR,1609712491
326,north branch,45.51,-92.98,30.99,27.0,83,26,6.51,US,1609712269
327,bambanglipuro,-7.95,110.28,76.44,76.44,86,100,3.04,ID,1609712493
328,palmer,42.16,-72.33,34.0,30.99,74,90,4.7,US,1609712315
329,tual,-5.67,132.75,84.6,84.6,76,90,11.27,ID,1609712495
330,kruisfontein,-34.0,24.73,72.0,72.0,87,13,2.1,ZA,1609712497
331,yar-sale,66.83,70.83,-20.29,-20.29,86,45,13.49,RU,1609712498
332,tadine,-21.55,167.88,82.13,82.13,79,83,3.62,NC,1609712499
333,te anau,-45.42,167.72,58.12,58.12,70,64,1.63,NZ,1609712502
334,manggar,-2.88,108.27,78.44,78.44,84,67,7.2,ID,1609712503
335,saint-pierre,-21.34,55.48,73.4,63.0,73,0,8.05,RE,1609712504
336,wuxue,29.85,115.55,37.99,37.99,76,0,0.94,CN,1609712506
337,chabua,27.48,95.17,53.26,53.26,57,1,2.93,IN,1609712507
338,langarud,37.2,50.15,48.2,48.2,76,90,2.24,IR,1609712508
339,jinja,0.44,33.2,66.07,66.07,83,65,2.13,UG,1609712509
340,dargaville,-35.93,173.88,73.78,73.78,53,1,2.75,NZ,1609712510
341,pafos,34.77,32.42,53.6,51.01,76,20,8.05,CY,1609712512
342,beringovskiy,63.05,179.32,12.56,12.56,95,100,26.24,RU,1609712513
343,atherton,53.52,-2.49,37.0,34.0,75,47,1.01,GB,1609712391
344,guantanamo,20.14,-75.21,82.4,82.0,65,40,13.87,CU,1609712515
345,jiuquan,39.74,98.52,6.1,6.1,94,100,3.6,CN,1609712517
346,hualmay,-11.1,-77.61,73.29,73.29,73,49,10.25,PE,1609712518
347,muramatsu,37.68,139.18,33.01,33.01,95,100,0.47,JP,1609712519
348,ahipara,-35.17,173.17,74.12,74.12,53,0,2.28,NZ,1609712520
349,havre,49.58,0.33,36.0,33.8,87,90,5.82,FR,1609712522
350,atar,20.52,-13.05,66.99,66.99,25,2,7.29,MR,1609712523
351,bayevo,53.28,80.77,-22.97,-22.97,84,0,3.78,RU,1609712524
352,am timan,11.03,20.28,75.76,75.76,21,1,4.0,TD,1609712525
353,pasca,4.31,-74.3,64.4,64.4,55,40,11.41,CO,1609712527
354,leh,34.17,77.58,12.47,12.47,74,98,1.88,IN,1609712467
355,diego de almagro,-26.37,-70.05,77.14,77.14,25,0,11.3,CL,1609712529
356,mao,39.89,4.27,44.6,44.6,61,80,8.05,ES,1609712244
357,chiredzi,-21.05,31.67,70.47,70.47,88,1,3.89,ZW,1609712532
358,stornoway,58.21,-6.39,37.4,35.01,86,0,5.82,GB,1609712534
359,deputatskiy,69.3,139.9,-25.19,-25.19,88,100,1.5,RU,1609712535
360,gorontalo,0.54,123.06,75.38,75.38,86,100,3.33,ID,1609712536
361,shenjiamen,29.96,122.3,51.84,51.84,79,54,15.1,CN,1609712537
362,potosi,-19.58,-65.75,50.52,50.52,66,56,0.65,BO,1609712539
363,tessalit,20.2,1.01,65.52,65.52,23,0,8.01,ML,1609712540
364,roald,62.58,6.13,28.99,24.8,79,0,8.05,NO,1609712541
365,mingshui,36.72,117.5,32.0,32.0,78,0,2.42,CN,1609712543
366,cartagena,10.4,-75.51,87.8,87.8,62,20,13.87,CO,1609712544
367,constitucion,-35.33,-72.42,67.12,67.12,60,3,22.19,CL,1609712545
368,kloulklubed,7.04,134.26,80.6,80.6,83,90,12.75,PW,1609712546
369,kavaratti,10.57,72.64,81.39,81.39,68,61,6.91,IN,1609712548
370,murgab,37.5,61.97,19.4,19.4,92,90,4.7,TM,1609712549
371,chapais,49.78,-74.85,21.2,21.2,92,90,9.17,CA,1609712550
372,enkoping,59.64,17.08,28.99,28.4,79,98,5.82,SE,1609712551
373,suwannaphum,15.6,103.8,66.99,64.99,74,98,11.74,TH,1609712553
374,ust-kuyga,70.02,135.6,-29.24,-29.24,81,96,3.49,RU,1609712554
375,dewa,27.03,81.17,60.8,60.8,93,75,5.46,IN,1609712555
376,adrar,20.5,-10.07,64.06,64.06,26,0,9.01,MR,1609712327
377,saint-augustin,51.23,-58.65,13.8,13.8,87,11,1.66,CA,1609712558
378,nago,26.59,127.98,64.4,62.01,88,75,6.93,JP,1609712559
379,anori,-3.77,-61.64,74.55,74.55,97,100,3.74,BR,1609712335
380,taoudenni,22.68,-3.98,63.41,63.41,26,0,4.54,ML,1609712561
381,safaga,26.73,33.94,62.6,62.6,55,0,11.41,EG,1609712563
382,sorokino,53.75,84.92,-23.15,-23.15,82,32,0.27,RU,1609712564
383,flinders,-34.58,150.86,73.99,72.0,98,99,4.0,AU,1609712565
384,dalvik,65.97,-18.53,44.6,44.6,65,20,34.45,IS,1609712566
385,mackay,-21.15,149.2,79.0,77.0,94,40,5.82,AU,1609712568
386,lokosovo,61.13,74.82,-27.22,-27.22,85,1,4.97,RU,1609712569
387,yeniseysk,58.45,92.17,-10.89,-10.89,89,100,10.29,RU,1609712571
388,nara,34.69,135.8,37.0,35.01,74,40,8.05,JP,1609712572
389,yelizovo,53.19,158.38,12.2,12.2,56,74,4.47,RU,1609712573
390,lamu,-2.27,40.9,80.6,80.6,78,1,6.93,KE,1609712574
391,port moresby,-9.44,147.18,75.2,75.2,100,40,8.05,PG,1609712576
392,birjand,32.87,59.22,21.2,21.2,31,0,6.93,IR,1609712577
393,karatau,43.17,70.47,3.85,3.85,93,90,2.89,KZ,1609712578
394,zhanaozen,43.3,52.8,24.71,24.71,84,9,9.04,KZ,1609712579
395,namatanai,-3.67,152.43,83.52,83.52,70,100,13.67,PG,1609712581
396,salta,-24.79,-65.41,73.4,73.4,73,40,17.22,AR,1609712411
397,vila velha,-20.33,-40.29,82.0,75.2,94,20,5.82,BR,1609712441
398,cockburn town,21.46,-71.14,77.0,77.0,69,75,14.99,TC,1609712584
399,kavieng,-2.57,150.8,84.24,84.24,74,100,17.07,PG,1609712585
400,trincomalee,8.57,81.23,79.86,79.86,83,100,16.28,LK,1609712587
401,samarkand,39.65,66.96,21.2,21.2,92,90,2.24,UZ,1609712588
402,annau,37.89,58.52,30.2,30.2,100,90,2.24,TM,1609712589
403,aksakovo,43.25,27.82,46.99,44.01,100,90,4.7,BG,1609712591
404,cooma,-36.23,149.13,60.8,60.8,100,40,8.05,AU,1609712592
405,mikhaylovka,50.06,43.24,22.68,22.68,98,25,6.15,RU,1609712593
406,birao,10.28,22.79,71.76,71.76,21,98,4.76,CF,1609712594
407,del rio,29.36,-100.9,69.8,68.0,28,1,5.82,US,1609712596
408,lloydminster,53.28,-110.0,33.8,33.8,74,40,14.99,CA,1609712470
409,isiro,2.77,27.62,67.17,67.17,88,4,1.3,CD,1609712598
410,matara,5.95,80.54,77.11,77.11,84,96,11.07,LK,1609712599
411,san quintin,30.48,-115.95,62.46,62.46,64,27,18.37,MX,1609712600
412,neuquen,-38.95,-68.06,84.2,84.2,35,40,11.41,AR,1609712355
413,ippy,6.27,21.22,74.53,74.53,28,28,4.5,CF,1609712603
414,porto novo,6.5,2.6,82.4,82.4,88,20,10.29,BJ,1609712604
415,robertsport,6.75,-11.37,80.8,80.8,76,0,9.75,LR,1609712606
416,tuntum,-5.26,-44.65,76.1,76.1,93,83,4.21,BR,1609712607
417,acapulco,16.86,-99.89,86.0,86.0,62,20,9.17,MX,1609712548
418,krasnyy oktyabr,56.12,38.88,30.87,30.87,98,100,6.6,RU,1609712610
419,hailar,49.2,119.7,-17.07,-17.07,88,87,7.27,CN,1609712611
420,algiers,36.75,3.04,44.6,44.6,53,20,8.05,DZ,1609712353
421,payo,-3.75,103.64,72.3,72.3,96,100,2.55,ID,1609712614
422,gagino,55.23,45.03,26.73,26.73,98,100,7.47,RU,1609712615
423,aripuana,-9.17,-60.63,76.71,76.71,90,100,1.72,BR,1609712616
424,barranco,9.52,-82.7,84.2,84.2,74,0,5.82,PA,1609712617
425,mareeba,-17.0,145.43,77.0,73.99,94,90,4.7,AU,1609712618
426,balabac,7.99,117.06,80.62,80.62,80,99,7.31,PH,1609712620
427,comodoro rivadavia,-45.87,-67.5,71.6,71.6,37,0,20.8,AR,1609712427
428,mandalgovi,45.76,106.27,-17.66,-17.66,85,0,9.89,MN,1609712622
429,vostok,46.49,135.88,-16.24,-16.24,90,84,4.83,RU,1609712623
430,souillac,-20.52,57.52,77.0,77.0,73,75,12.75,MU,1609712625
431,saint simons,31.14,-81.39,62.6,57.99,55,1,10.29,US,1609712626
432,durban,-29.86,31.03,72.0,66.99,88,0,3.36,ZA,1609712554
433,sciacca,37.51,13.09,45.0,45.0,82,100,4.0,IT,1609712628
434,kutum,14.2,24.67,62.1,62.1,28,19,8.05,SD,1609712630
435,oparino,59.85,48.28,13.71,13.71,97,100,5.23,RU,1609712631
436,halifax,44.65,-63.57,30.2,28.0,80,94,8.05,CA,1609712402
437,port lincoln,-34.73,135.87,62.8,62.8,76,100,20.67,AU,1609712633
438,isangel,-19.55,169.27,82.4,82.4,88,75,5.82,VU,1609712634
439,manyana,-23.4,21.72,71.8,71.8,65,6,7.58,BW,1609712636
440,bambous virieux,-20.34,57.76,77.0,77.0,73,75,12.75,MU,1609712637
441,mizan teferi,6.98,35.58,64.2,64.2,76,28,3.04,ET,1609712638
442,saurimo,-9.66,20.39,64.69,64.69,90,98,2.08,AO,1609712640
443,zabol,32.25,67.25,33.39,33.39,66,0,6.71,AF,1609712641
444,talara,-4.58,-81.27,70.7,70.7,77,5,11.59,PE,1609712642
445,popondetta,-8.75,148.25,82.08,82.08,73,100,2.28,PG,1609712644
446,ginir,7.13,40.7,58.64,58.64,57,10,4.68,ET,1609712645
447,gazanjyk,39.24,55.52,31.1,31.1,95,58,0.76,TM,1609712646
448,mathbaria,22.29,89.96,60.53,60.53,58,67,3.56,BD,1609712647
449,okhotsk,59.38,143.3,-11.22,-11.22,82,100,14.36,RU,1609712649
450,sur,22.57,59.53,67.71,67.71,35,0,15.61,OM,1609712603
451,okato,-39.2,173.88,71.01,64.99,53,4,4.0,NZ,1609712651
452,poronaysk,49.22,143.12,-6.72,-6.72,88,43,5.73,RU,1609712653
453,hofn,64.25,-15.21,44.82,44.82,86,100,32.03,IS,1609712654
454,torbay,47.67,-52.73,33.01,30.0,92,75,18.34,CA,1609712655
455,treinta y tres,-33.23,-54.38,74.37,74.37,62,1,14.72,UY,1609712656
456,haines junction,60.75,-137.51,-0.8,-0.8,87,98,1.79,CA,1609712657
457,kysyl-syr,63.9,122.76,-41.08,-41.08,80,37,2.86,RU,1609712659
458,avrille,47.5,-0.58,36.0,33.8,98,90,4.7,FR,1609712660
459,katherine,-14.47,132.27,82.4,82.4,83,75,6.93,AU,1609712661
460,prince albert,53.2,-105.77,35.6,35.6,74,75,12.75,CA,1609712410
461,nome,64.5,-165.41,1.4,-0.99,54,1,13.87,US,1609712664
462,muli,2.92,73.57,81.41,81.41,80,67,12.26,MV,1609712665
463,coulommiers,48.81,3.08,35.01,35.01,93,100,3.0,FR,1609712666
464,akim swedru,5.89,-1.02,75.72,75.72,91,0,3.58,GH,1609712667
465,pullman,46.73,-117.18,45.0,37.99,75,1,21.92,US,1609712423
466,vertientes,21.26,-78.15,84.2,84.2,35,40,5.82,CU,1609712670
467,puerto escondido,15.85,-97.07,86.0,86.0,66,5,9.17,MX,1609712671
468,kosh-agach,50.0,88.67,-34.51,-34.51,77,14,1.59,RU,1609712672
469,yarkovo,57.4,67.08,-11.6,-11.6,87,100,9.44,RU,1609712673
470,banes,20.96,-75.72,86.0,86.0,35,20,4.7,CU,1609712676
471,stillwater,36.12,-97.06,48.2,46.99,61,1,5.82,US,1609712677
472,yushu,44.8,126.53,-14.42,-14.42,88,4,8.03,CN,1609712678
473,kouroussa,10.65,-9.88,78.55,78.55,32,0,2.51,GN,1609712679
474,liptovsky hradok,49.04,19.72,37.0,33.8,86,75,2.24,SK,1609712681
475,lianzhou,24.78,112.38,41.2,41.2,68,31,2.91,CN,1609712682
476,yarmouth,41.71,-70.23,39.99,39.0,80,90,6.93,US,1609712683
477,canillo,42.58,1.67,24.01,21.99,43,0,0.72,AD,1609712684
478,dwarka,22.24,68.97,66.61,66.61,52,0,12.93,IN,1609712686
479,kuryk,43.2,51.65,31.01,31.01,83,0,7.45,KZ,1609712687
480,panama city,8.99,-79.52,86.0,82.4,74,40,2.24,PA,1609712688
481,raudeberg,61.99,5.14,28.99,23.0,79,0,6.93,NO,1609712689
482,merrill,45.18,-89.68,24.8,24.01,100,90,3.36,US,1609712691
483,sindal,57.47,10.2,34.0,34.0,89,15,3.0,DK,1609712692
484,zhaotong,27.32,103.72,31.77,31.77,93,31,0.63,CN,1609712693
485,dicabisagan,17.08,122.42,76.42,76.42,85,58,4.38,PH,1609712695
486,trairi,-3.28,-39.27,79.5,79.5,80,0,9.57,BR,1609712696
487,tomohon,1.33,124.84,75.2,75.2,94,40,1.12,ID,1609712697
488,kathu,7.92,98.33,82.0,77.0,78,20,9.17,TH,1609712698
489,tarakan,3.3,117.63,73.4,73.4,100,75,9.17,ID,1609712600
490,kingaroy,-26.53,151.83,77.0,69.8,88,99,2.24,AU,1609712701
491,mayumba,-3.43,10.66,77.72,77.72,89,99,3.58,GA,1609712702
492,mpanda,-6.37,31.04,65.68,65.68,92,98,1.32,TZ,1609712703
493,salinas,36.68,-121.66,62.6,57.0,55,1,5.82,US,1609712582
494,trinidad,-14.83,-64.9,91.4,91.4,59,20,9.17,BO,1609712706
495,kangaatsiaq,68.31,-53.46,15.21,15.21,95,100,3.91,GL,1609712707
496,esik,43.36,77.45,1.4,1.4,84,90,4.47,KZ,1609712709
497,franklin,39.97,-83.02,37.99,36.0,74,90,11.41,US,1609712710
498,itarema,-2.92,-39.92,79.65,79.65,80,0,12.84,BR,1609712711
499,sukumo,32.93,132.73,35.56,35.56,84,92,6.2,JP,1609712712
500,lithakia,37.72,20.83,55.4,55.4,76,99,5.82,GR,1609712714
501,kaifeng,34.79,114.35,19.4,19.4,79,13,4.88,CN,1609712715
502,shimoda,34.67,138.95,41.0,41.0,65,75,14.99,JP,1609712716
503,sambava,-14.27,50.17,75.67,75.67,82,100,11.9,MG,1609712717
504,santa maria,-29.68,-53.81,86.0,86.0,42,0,12.75,BR,1609712718
505,buraydah,26.33,43.98,60.8,60.8,100,40,9.17,SA,1609712720
506,kadoma,34.73,135.58,37.0,35.01,74,40,8.05,JP,1609712721
507,chateaudun,48.08,1.33,35.6,33.8,92,100,5.82,FR,1609712722
508,krasnyy chikoy,50.36,108.75,-14.89,-14.89,84,100,4.27,RU,1609712723
509,sao lourenco do sul,-31.37,-51.98,77.0,77.0,69,7,1.99,BR,1609712725
510,santa maria del oro,25.93,-105.37,67.32,67.32,20,0,5.97,MX,1609712726
511,lorengau,-2.02,147.27,83.17,83.17,74,90,3.4,PG,1609712727
512,salekhard,66.53,66.6,-26.23,-26.23,86,89,8.01,RU,1609712728
513,sartell,45.62,-94.21,28.0,24.01,73,1,8.05,US,1609712488
514,novobirilyussy,56.95,90.67,-9.74,-9.74,89,100,12.55,RU,1609712731
515,ajdabiya,30.76,20.23,63.55,63.55,46,99,23.04,LY,1609712732
516,rapid valley,44.06,-103.15,48.99,46.0,31,1,3.76,US,1609712733
517,turukhansk,65.82,87.98,-7.74,-7.74,91,100,4.92,RU,1609712735
518,biak,-0.91,122.88,77.81,77.81,76,100,4.38,ID,1609712736
519,siderno,38.28,16.3,51.8,33.01,66,57,6.93,IT,1609712737
520,pampierstad,-27.78,24.69,70.0,70.0,63,100,7.34,ZA,1609712739
521,dhali,10.5,77.17,73.4,73.4,88,75,3.36,IN,1609712740
522,aswan,24.09,32.91,62.92,62.92,30,0,8.99,EG,1609712642
523,devonport,-41.17,146.35,60.01,60.01,85,100,3.0,AU,1609712742
524,nuuk,64.18,-51.72,24.8,24.01,92,100,26.4,GL,1609712744
525,prince rupert,54.32,-130.32,44.6,44.6,70,75,8.05,CA,1609712745
526,atambua,-9.11,124.89,75.65,75.65,85,99,1.52,ID,1609712746
527,vila,42.03,-8.16,37.99,37.99,94,90,1.83,PT,1609712747
528,pembroke,45.82,-77.12,28.99,28.4,74,90,4.7,CA,1609712749
529,carora,10.18,-70.08,78.03,78.03,60,76,13.87,VE,1609712751
530,ahuimanu,21.44,-157.84,80.6,73.99,78,75,5.82,US,1609712752
531,xianyang,34.34,108.7,33.01,19.4,85,51,4.47,CN,1609712754
532,chalisgaon,20.47,75.02,74.48,74.48,41,48,2.66,IN,1609712755
533,eganville,45.53,-77.1,28.99,28.0,74,90,4.7,CA,1609712756
534,wanxian,30.8,108.39,42.89,42.89,78,52,1.1,CN,1609712757
535,talca,-35.43,-71.67,89.6,89.6,22,0,13.87,CL,1609712644
536,gimli,50.63,-96.99,41.0,33.8,74,100,14.99,CA,1609712760
537,coari,-4.08,-63.14,76.8,76.8,93,91,5.06,BR,1609712761
538,livramento,-3.03,-60.18,75.2,73.4,94,75,4.7,BR,1609712762
539,tsybli,49.99,31.56,33.8,33.01,89,90,8.95,UA,1609712763
540,qorveh,35.17,47.8,27.01,27.01,92,0,5.53,IR,1609712765
541,gat,31.61,34.76,57.99,57.0,93,0,0.29,IL,1609712520
542,sakaiminato,35.55,133.23,33.8,32.0,86,75,4.7,JP,1609712714
543,berbera,10.44,45.01,74.52,74.52,72,0,3.09,SO,1609712768
544,magadan,59.57,150.8,-6.74,-6.74,89,100,11.36,RU,1609712770
545,skjervoy,70.03,20.97,39.2,39.2,73,100,12.73,NO,1609712771
546,bereda,43.27,-7.54,35.01,34.0,100,14,1.99,ES,1609712772
547,narsaq,60.92,-46.05,26.6,26.6,68,100,4.7,GL,1609712773
548,wamba,8.93,8.6,78.15,78.15,21,0,4.5,NG,1609712775
549,laguna,38.42,-121.42,57.0,53.6,93,1,2.19,US,1609712776
550,luderitz,-26.65,15.16,69.8,69.8,73,61,4.81,NA,1609712777
551,shanghai,31.22,121.46,48.2,46.0,70,0,4.47,CN,1609712638
552,epe,6.58,3.98,79.25,79.25,86,0,6.73,NG,1609712779
553,ishim,56.11,69.49,-18.56,-18.56,85,100,11.12,RU,1609712781
554,port augusta,-32.5,137.77,69.01,68.0,72,75,12.75,AU,1609712782
555,kwinana,-32.25,115.77,64.99,62.6,63,22,19.46,AU,1609712783
556,kemijarvi,66.71,27.43,13.55,13.55,95,0,3.06,FI,1609712784
557,santa isabel,-23.32,-46.22,71.6,66.99,82,90,9.17,BR,1609712786
558,lixourion,38.2,20.43,59.43,59.43,78,92,16.33,GR,1609712787
559,praia,14.92,-23.51,71.6,71.6,83,20,8.05,CV,1609712769
560,bonfim,3.08,-59.95,81.5,81.5,70,62,7.78,BR,1609712789
561,along,28.17,94.77,47.34,47.34,54,31,1.88,IN,1609712790
562,george town,5.41,100.34,77.0,75.0,94,40,3.36,MY,1609712792
563,tazovskiy,67.47,78.7,-19.3,-19.3,88,33,9.64,RU,1609712793
564,paraiso,9.84,-83.87,77.0,70.0,60,40,8.05,CR,1609712794
565,daru,-9.08,143.21,80.73,80.73,84,100,12.55,PG,1609712795
